id,name.local,name.en,name.slug,code.id,geo.lat,geo.lon
MR01184,Blajmil,Blajmil,blajmil,MR01184,16.04,-11.068
MR01186,Hamed,Hamed,hamed,MR01186,15.574,-11.217
MR01182,Kankoussa,Kankoussa,kankoussa,MR01182,15.881,-11.532
MR01183,Sani,Sani,sani,MR01183,16.106,-11.46
MR01185,Tenaha,Tenaha,tenaha,MR01185,15.47,-10.844
